{
  "installations": [
    {
      "id": "001",
      "nom": "Hôtel Ivoire Sofitel",
      "type": "Vidéosurveillance",
      "quartier": "Cocody",
      "ville": "Abidjan",
      "pays": "Côte d'Ivoire",
      "continent": "Afrique",
      "lat": 5.3419,
      "lng": -3.9958,
      "date": "2022-03",
      "equip": "64 caméras IP 4K",
      "desc": "Surveillance complète lobby, étages et parkings"
    },
    {
      "id": "002",
      "nom": "Aéroport Félix Houphouët-Boigny",
      "type": "Contrôle d'Accès",
      "quartier": "Port-Bouët",
      "ville": "Abidjan",
      "pays": "Côte d'Ivoire",
      "continent": "Afrique",
      "lat": 5.2613,
      "lng": -3.926,
      "date": "2021-11",
      "equip": "32 lecteurs biométriques",
      "desc": "Contrôle d'accès haute sécurité zones restreintes"
    },
    {
      "id": "003",
      "nom": "Port Autonome d'Abidjan",
      "type": "Vidéosurveillance",
      "quartier": "Vridi",
      "ville": "Abidjan",
      "pays": "Côte d'Ivoire",
      "continent": "Afrique",
      "lat": 5.2904,
      "lng": -4.0086,
      "date": "2023-01",
      "equip": "128 caméras HD",
      "desc": "Surveillance périmétrique et contrôle des accès portuaires"
    },
    {
      "id": "004",
      "nom": "Université FHB",
      "type": "Alarme Anti-Intrusion",
      "quartier": "Cocody",
      "ville": "Abidjan",
      "pays": "Côte d'Ivoire",
      "continent": "Afrique",
      "lat": 5.3476,
      "lng": -4.0171,
      "date": "2022-09",
      "equip": "120 détecteurs de mouvement",
      "desc": "Système d'alarme anti-intrusion bâtiments administratifs et laboratoires"
    },
    {
      "id": "005",
      "nom": "Immeuble BSIC Plateau",
      "type": "Contrôle d'Accès",
      "quartier": "Plateau",
      "ville": "Abidjan",
      "pays": "Côte d'Ivoire",
      "continent": "Afrique",
      "lat": 5.3219,
      "lng": -4.0186,
      "date": "2023-05",
      "equip": "16 lecteurs RFID",
      "desc": "Contrôle d'accès étages et parking souterrain"
    },
    {
      "id": "006",
      "nom": "Clinique Avicenne",
      "type": "Sécurité Incendie",
      "quartier": "Marcory",
      "ville": "Abidjan",
      "pays": "Côte d'Ivoire",
      "continent": "Afrique",
      "lat": 5.2987,
      "lng": -3.9893,
      "date": "2022-07",
      "equip": "240 détecteurs de fumée",
      "desc": "Système SSI complet conforme aux normes hospitalières"
    },
    {
      "id": "007",
      "nom": "Résidence Les Jardins",
      "type": "Vidéosurveillance",
      "quartier": "Riviera",
      "ville": "Abidjan",
      "pays": "Côte d'Ivoire",
      "continent": "Afrique",
      "lat": 5.3616,
      "lng": -3.9723,
      "date": "2023-08",
      "equip": "24 caméras IP",
      "desc": "Surveillance accès et espaces communs résidence haut de gamme"
    },
    {
      "id": "008",
      "nom": "Mairie de Yamoussoukro",
      "type": "Vidéosurveillance",
      "quartier": "Centre",
      "ville": "Yamoussoukro",
      "pays": "Côte d'Ivoire",
      "continent": "Afrique",
      "lat": 6.8206,
      "lng": -5.2767,
      "date": "2021-06",
      "equip": "36 caméras",
      "desc": "Surveillance de la mairie et des bâtiments administratifs"
    },
    {
      "id": "009",
      "nom": "Supermarché PlaYce Yopougon",
      "type": "Vidéosurveillance",
      "quartier": "Yopougon",
      "ville": "Abidjan",
      "pays": "Côte d'Ivoire",
      "continent": "Afrique",
      "lat": 5.3298,
      "lng": -4.0701,
      "date": "2024-01",
      "equip": "48 caméras",
      "desc": "Couverture complète du supermarché et du parking"
    },
    {
      "id": "010",
      "nom": "Ambassade de France",
      "type": "Contrôle d'Accès",
      "quartier": "Plateau",
      "ville": "Abidjan",
      "pays": "Côte d'Ivoire",
      "continent": "Afrique",
      "lat": 5.3192,
      "lng": -4.0241,
      "date": "2020-11",
      "equip": "8 portiques + biométrie",
      "desc": "Système haute sécurité"
    },
    {
      "id": "011",
      "nom": "CHU de Bouaké",
      "type": "Sécurité Incendie",
      "quartier": "Centre",
      "ville": "Bouaké",
      "pays": "Côte d'Ivoire",
      "continent": "Afrique",
      "lat": 7.6944,
      "lng": -5.0314,
      "date": "2023-10",
      "equip": "320 détecteurs",
      "desc": "Système SSI pour le plus grand hôpital du centre du pays"
    },
    {
      "id": "012",
      "nom": "Port de San-Pédro",
      "type": "Vidéosurveillance",
      "quartier": "Zone Portuaire",
      "ville": "San-Pédro",
      "pays": "Côte d'Ivoire",
      "continent": "Afrique",
      "lat": 4.748,
      "lng": -6.6364,
      "date": "2022-11",
      "equip": "56 caméras",
      "desc": "Surveillance du port cacaoyer, 2ème port du pays"
    },
    {
      "id": "013",
      "nom": "Hôtel Azalaï",
      "type": "Vidéosurveillance",
      "quartier": "Plateau",
      "ville": "Dakar",
      "pays": "Sénégal",
      "continent": "Afrique",
      "lat": 14.6937,
      "lng": -17.4441,
      "date": "2023-06",
      "equip": "40 caméras",
      "desc": "Système de surveillance hôtelière haute gamme"
    },
    {
      "id": "014",
      "nom": "Société Minière du Burkina",
      "type": "Clôture Électrique",
      "quartier": "Zone Industrielle",
      "ville": "Ouagadougou",
      "pays": "Burkina Faso",
      "continent": "Afrique",
      "lat": 12.3686,
      "lng": -1.5247,
      "date": "2024-03",
      "equip": "2,4 km de clôture",
      "desc": "Protection périmétrique site minier"
    },
    {
      "id": "015",
      "nom": "Palais des Congrès",
      "type": "Réseau Informatique",
      "quartier": "Centre",
      "ville": "Abidjan",
      "pays": "Côte d'Ivoire",
      "continent": "Afrique",
      "lat": 5.3551,
      "lng": -4.0084,
      "date": "2024-02",
      "equip": "Réseau fibre + Wi-Fi 6",
      "desc": "Infrastructure réseau haute performance pour congrès internationaux"
    }
  ]
}